transforms: 
  - 
    header: 
      seq: 0
      stamp: 
        secs: 219
        nsecs: 810000000
      frame_id: /map
    child_frame_id: /odom
    transform: 
      translation: 
        x: 5.13972103929
        y: 25.3004418698
        z: -0.0107802979123
      rotation: 
        x: -0.000163889299722
        y: 0.00106949414845
        z: 0.98873652915
        w: -0.149662638116
---
transforms: 
  - 
    header: 
      seq: 0
      stamp: 
        secs: 219
        nsecs: 824000000
      frame_id: /odom
    child_frame_id: /base_link
    transform: 
      translation: 
        x: 9.99991321564
        y: 4.99996614456
        z: 0.0
      rotation: 
        x: -2.29969458503e-06
        y: 1.83872290353e-06
        z: 0.70670878144
        w: 0.707504557036
---
transforms: 
  - 
    header: 
      seq: 0
      stamp: 
        secs: 219
        nsecs: 841000000
      frame_id: /odom
    child_frame_id: /base_link
    transform: 
      translation: 
        x: 9.99991321564
        y: 4.99996614456
        z: 0.0
      rotation: 
        x: -2.29996860869e-06
        y: 1.83834485224e-06
        z: 0.706708767691
        w: 0.70750457077
---
transforms: 
  - 
    header: 
      seq: 0
      stamp: 
        secs: 219
        nsecs: 375000000
      frame_id: /base_link
    child_frame_id: /Unicycle/laserscan
    transform: 
      translation: 
        x: 0.2
        y: 0.0
        z: 0.35
      rotation: 
        x: 0.0
        y: 0.0
        z: 0.0
        w: 1.0
---
transforms: 
  - 
    header: 
      seq: 0
      stamp: 
        secs: 219
        nsecs: 850000000
      frame_id: /odom
    child_frame_id: /base_link
    transform: 
      translation: 
        x: 9.99991321564
        y: 4.99996614456
        z: 0.0
      rotation: 
        x: -2.29973821403e-06
        y: 1.83863660632e-06
        z: 0.706708772189
        w: 0.707504566277
---
transforms: 
  - 
    header: 
      seq: 0
      stamp: 
        secs: 219
        nsecs: 846000000
      frame_id: /map
    child_frame_id: /odom
    transform: 
      translation: 
        x: 5.13972103929
        y: 25.3004418698
        z: -0.0107802979123
      rotation: 
        x: -0.000163889299722
        y: 0.00106949414845
        z: 0.98873652915
        w: -0.149662638116
---
transforms: 
  - 
    header: 
      seq: 0
      stamp: 
        secs: 219
        nsecs: 868000000
      frame_id: /odom
    child_frame_id: /base_link
    transform: 
      translation: 
        x: 9.99991321564
        y: 4.99996614456
        z: 0.0
      rotation: 
        x: -2.29973722091e-06
        y: 1.8386043549e-06
        z: 0.706708766978
        w: 0.707504571482
---
transforms: 
  - 
    header: 
      seq: 0
      stamp: 
        secs: 219
        nsecs: 408000000
      frame_id: /base_link
    child_frame_id: /Unicycle/laserscan
    transform: 
      translation: 
        x: 0.2
        y: 0.0
        z: 0.35
      rotation: 
        x: 0.0
        y: 0.0
        z: 0.0
        w: 1.0
---
transforms: 
  - 
    header: 
      seq: 0
      stamp: 
        secs: 219
        nsecs: 881000000
      frame_id: /odom
    child_frame_id: /base_link
    transform: 
      translation: 
        x: 9.99991321564
        y: 4.99996614456
        z: 0.0
      rotation: 
        x: -2.29956218757e-06
        y: 1.83890709889e-06
        z: 0.706708762082
        w: 0.707504576372
---
transforms: 
  - 
    header: 
      seq: 0
      stamp: 
        secs: 219
        nsecs: 894000000
      frame_id: /odom
    child_frame_id: /base_link
    transform: 
      translation: 
        x: 9.99991321564
        y: 4.99996614456
        z: 0.0
      rotation: 
        x: -2.299805225e-06
        y: 1.83871895799e-06
        z: 0.706708748404
        w: 0.707504590035
---
transforms: 
  - 
    header: 
      seq: 0
      stamp: 
        secs: 219
        nsecs: 881000000
      frame_id: /map
    child_frame_id: /odom
    transform: 
      translation: 
        x: 5.13972103929
        y: 25.3004418698
        z: -0.0107802979123
      rotation: 
        x: -0.000163889299722
        y: 0.00106949414845
        z: 0.98873652915
        w: -0.149662638116
---
transforms: 
  - 
    header: 
      seq: 0
      stamp: 
        secs: 219
        nsecs: 441000000
      frame_id: /base_link
    child_frame_id: /Unicycle/laserscan
    transform: 
      translation: 
        x: 0.2
        y: 0.0
        z: 0.35
      rotation: 
        x: 0.0
        y: 0.0
        z: 0.0
        w: 1.0
---
transforms: 
  - 
    header: 
      seq: 0
      stamp: 
        secs: 219
        nsecs: 913000000
      frame_id: /odom
    child_frame_id: /base_link
    transform: 
      translation: 
        x: 9.99991321564
        y: 4.99996614456
        z: 0.0
      rotation: 
        x: -2.29955971053e-06
        y: 1.83886943788e-06
        z: 0.706708751679
        w: 0.707504586763
---
transforms: 
  - 
    header: 
      seq: 0
      stamp: 
        secs: 219
        nsecs: 927000000
      frame_id: /odom
    child_frame_id: /base_link
    transform: 
      translation: 
        x: 9.99991321564
        y: 4.99996614456
        z: 0.0
      rotation: 
        x: -2.29971030204e-06
        y: 1.83866650248e-06
        z: 0.706708748033
        w: 0.707504590406
---
transforms: 
  - 
    header: 
      seq: 0
      stamp: 
        secs: 219
        nsecs: 915000000
      frame_id: /map
    child_frame_id: /odom
    transform: 
      translation: 
        x: 5.13972103929
        y: 25.3004418698
        z: -0.0107802979123
      rotation: 
        x: -0.000163889299722
        y: 0.00106949414845
        z: 0.98873652915
        w: -0.149662638116
---
transforms: 
  - 
    header: 
      seq: 0
      stamp: 
        secs: 219
        nsecs: 474000000
      frame_id: /base_link
    child_frame_id: /Unicycle/laserscan
    transform: 
      translation: 
        x: 0.2
        y: 0.0
        z: 0.35
      rotation: 
        x: 0.0
        y: 0.0
        z: 0.0
        w: 1.0
---
transforms: 
  - 
    header: 
      seq: 0
      stamp: 
        secs: 219
        nsecs: 942000000
      frame_id: /odom
    child_frame_id: /base_link
    transform: 
      translation: 
        x: 9.99991321564
        y: 4.99996614456
        z: 0.0
      rotation: 
        x: -2.30002319698e-06
        y: 1.8382637679e-06
        z: 0.706708734444
        w: 0.70750460398
---
transforms: 
  - 
    header: 
      seq: 0
      stamp: 
        secs: 219
        nsecs: 954000000
      frame_id: /odom
    child_frame_id: /base_link
    transform: 
      translation: 
        x: 9.99991321564
        y: 4.99996614456
        z: 0.0
      rotation: 
        x: -2.29947691571e-06
        y: 1.83920151219e-06
        z: 0.706708735733
        w: 0.707504602692
---
transforms: 
  - 
    header: 
      seq: 0
      stamp: 
        secs: 219
        nsecs: 949000000
      frame_id: /map
    child_frame_id: /odom
    transform: 
      translation: 
        x: 5.13972103929
        y: 25.3004418698
        z: -0.0107802979123
      rotation: 
        x: -0.000163889299722
        y: 0.00106949414845
        z: 0.98873652915
        w: -0.149662638116
---
transforms: 
  - 
    header: 
      seq: 0
      stamp: 
        secs: 219
        nsecs: 969000000
      frame_id: /odom
    child_frame_id: /base_link
    transform: 
      translation: 
        x: 9.99991321564
        y: 4.99996614456
        z: 0.0
      rotation: 
        x: -2.29946069567e-06
        y: 1.83917221322e-06
        z: 0.706708730436
        w: 0.707504607983
---
transforms: 
  - 
    header: 
      seq: 0
      stamp: 
        secs: 219
        nsecs: 508000000
      frame_id: /base_link
    child_frame_id: /Unicycle/laserscan
    transform: 
      translation: 
        x: 0.2
        y: 0.0
        z: 0.35
      rotation: 
        x: 0.0
        y: 0.0
        z: 0.0
        w: 1.0
---
transforms: 
  - 
    header: 
      seq: 0
      stamp: 
        secs: 219
        nsecs: 982000000
      frame_id: /odom
    child_frame_id: /base_link
    transform: 
      translation: 
        x: 9.99991321564
        y: 4.99996614456
        z: 0.0
      rotation: 
        x: -2.29971704205e-06
        y: 1.83867905369e-06
        z: 0.706708728567
        w: 0.70750460985
---
transforms: 
  - 
    header: 
      seq: 0
      stamp: 
        secs: 219
        nsecs: 998000000
      frame_id: /odom
    child_frame_id: /base_link
    transform: 
      translation: 
        x: 9.99991321564
        y: 4.99996614456
        z: 0.0
      rotation: 
        x: -2.29990489258e-06
        y: 1.83842816117e-06
        z: 0.706708715419
        w: 0.707504622983
---
transforms: 
  - 
    header: 
      seq: 0
      stamp: 
        secs: 219
        nsecs: 982000000
      frame_id: /map
    child_frame_id: /odom
    transform: 
      translation: 
        x: 5.13972103929
        y: 25.3004418698
        z: -0.0107802979123
      rotation: 
        x: -0.000163889299722
        y: 0.00106949414845
        z: 0.98873652915
        w: -0.149662638116
---
transforms: 
  - 
    header: 
      seq: 0
      stamp: 
        secs: 219
        nsecs: 541000000
      frame_id: /base_link
    child_frame_id: /Unicycle/laserscan
    transform: 
      translation: 
        x: 0.2
        y: 0.0
        z: 0.35
      rotation: 
        x: 0.0
        y: 0.0
        z: 0.0
        w: 1.0
---
transforms: 
  - 
    header: 
      seq: 0
      stamp: 
        secs: 220
        nsecs: 15000000
      frame_id: /odom
    child_frame_id: /base_link
    transform: 
      translation: 
        x: 9.99991321564
        y: 4.99996614456
        z: 0.0
      rotation: 
        x: -2.29994635494e-06
        y: 1.83840687754e-06
        z: 0.706708710356
        w: 0.70750462804
---
transforms: 
  - 
    header: 
      seq: 0
      stamp: 
        secs: 220
        nsecs: 26000000
      frame_id: /odom
    child_frame_id: /base_link
    transform: 
      translation: 
        x: 9.99991321564
        y: 4.99996614456
        z: 0.0
      rotation: 
        x: -2.29974871671e-06
        y: 1.83869756006e-06
        z: 0.706708713969
        w: 0.707504624431
---
transforms: 
  - 
    header: 
      seq: 0
      stamp: 
        secs: 220
        nsecs: 15000000
      frame_id: /map
    child_frame_id: /odom
    transform: 
      translation: 
        x: 5.13972103929
        y: 25.3004418698
        z: -0.0107802979123
      rotation: 
        x: -0.000163889299722
        y: 0.00106949414845
        z: 0.98873652915
        w: -0.149662638116
---
transforms: 
  - 
    header: 
      seq: 0
      stamp: 
        secs: 219
        nsecs: 574000000
      frame_id: /base_link
    child_frame_id: /Unicycle/laserscan
    transform: 
      translation: 
        x: 0.2
        y: 0.0
        z: 0.35
      rotation: 
        x: 0.0
        y: 0.0
        z: 0.0
        w: 1.0
---
transforms: 
  - 
    header: 
      seq: 0
      stamp: 
        secs: 220
        nsecs: 43000000
      frame_id: /odom
    child_frame_id: /base_link
    transform: 
      translation: 
        x: 9.99991321564
        y: 4.99996614456
        z: 0.0
      rotation: 
        x: -2.29992562545e-06
        y: 1.83834576984e-06
        z: 0.706708700129
        w: 0.707504638256
---
transforms: 
  - 
    header: 
      seq: 0
      stamp: 
        secs: 220
        nsecs: 57000000
      frame_id: /odom
    child_frame_id: /base_link
    transform: 
      translation: 
        x: 9.99991321564
        y: 4.99996614456
        z: 0.0
      rotation: 
        x: -2.29993274092e-06
        y: 1.8384246091e-06
        z: 0.706708695815
        w: 0.707504642565
---
transforms: 
  - 
    header: 
      seq: 0
      stamp: 
        secs: 220
        nsecs: 52000000
      frame_id: /map
    child_frame_id: /odom
    transform: 
      translation: 
        x: 5.13972103929
        y: 25.3004418698
        z: -0.0107802979123
      rotation: 
        x: -0.000163889299722
        y: 0.00106949414845
        z: 0.98873652915
        w: -0.149662638116
---
transforms: 
  - 
    header: 
      seq: 0
      stamp: 
        secs: 219
        nsecs: 607000000
      frame_id: /base_link
    child_frame_id: /Unicycle/laserscan
    transform: 
      translation: 
        x: 0.2
        y: 0.0
        z: 0.35
      rotation: 
        x: 0.0
        y: 0.0
        z: 0.0
        w: 1.0
---
transforms: 
  - 
    header: 
      seq: 0
      stamp: 
        secs: 220
        nsecs: 69000000
      frame_id: /odom
    child_frame_id: /base_link
    transform: 
      translation: 
        x: 9.99991321564
        y: 4.99996614456
        z: 0.0
      rotation: 
        x: -2.29991090478e-06
        y: 1.83843390589e-06
        z: 0.706708690506
        w: 0.707504647868
---
transforms: 
  - 
    header: 
      seq: 0
      stamp: 
        secs: 220
        nsecs: 84000000
      frame_id: /odom
    child_frame_id: /base_link
    transform: 
      translation: 
        x: 9.99991321564
        y: 4.99996614456
        z: 0.0
      rotation: 
        x: -2.29992546955e-06
        y: 1.83855461526e-06
        z: 0.706708682275
        w: 0.707504656089
---
transforms: 
  - 
    header: 
      seq: 0
      stamp: 
        secs: 220
        nsecs: 98000000
      frame_id: /odom
    child_frame_id: /base_link
    transform: 
      translation: 
        x: 9.99991321564
        y: 4.99996614456
        z: 0.0
      rotation: 
        x: -2.29991938076e-06
        y: 1.83843939073e-06
        z: 0.70670868214
        w: 0.707504656225
---
transforms: 
  - 
    header: 
      seq: 0
      stamp: 
        secs: 220
        nsecs: 84000000
      frame_id: /map
    child_frame_id: /odom
    transform: 
      translation: 
        x: 5.13972103929
        y: 25.3004418698
        z: -0.0107802979123
      rotation: 
        x: -0.000163889299722
        y: 0.00106949414845
        z: 0.98873652915
        w: -0.149662638116
---
transforms: 
  - 
    header: 
      seq: 0
      stamp: 
        secs: 219
        nsecs: 640000000
      frame_id: /base_link
    child_frame_id: /Unicycle/laserscan
    transform: 
      translation: 
        x: 0.2
        y: 0.0
        z: 0.35
      rotation: 
        x: 0.0
        y: 0.0
        z: 0.0
        w: 1.0
---
transforms: 
  - 
    header: 
      seq: 0
      stamp: 
        secs: 220
        nsecs: 116000000
      frame_id: /odom
    child_frame_id: /base_link
    transform: 
      translation: 
        x: 9.99991321564
        y: 4.99996614456
        z: 0.0
      rotation: 
        x: -2.2999353664e-06
        y: 1.83831771156e-06
        z: 0.706708676324
        w: 0.707504662034
---
transforms: 
  - 
    header: 
      seq: 0
      stamp: 
        secs: 220
        nsecs: 128000000
      frame_id: /odom
    child_frame_id: /base_link
    transform: 
      translation: 
        x: 9.99991321564
        y: 4.99996614456
        z: 0.0
      rotation: 
        x: -2.29997134568e-06
        y: 1.83856305652e-06
        z: 0.706708667598
        w: 0.70750467075
---
transforms: 
  - 
    header: 
      seq: 0
      stamp: 
        secs: 220
        nsecs: 117000000
      frame_id: /map
    child_frame_id: /odom
    transform: 
      translation: 
        x: 5.13972103929
        y: 25.3004418698
        z: -0.0107802979123
      rotation: 
        x: -0.000163889299722
        y: 0.00106949414845
        z: 0.98873652915
        w: -0.149662638116
---
transforms: 
  - 
    header: 
      seq: 0
      stamp: 
        secs: 219
        nsecs: 673000000
      frame_id: /base_link
    child_frame_id: /Unicycle/laserscan
    transform: 
      translation: 
        x: 0.2
        y: 0.0
        z: 0.35
      rotation: 
        x: 0.0
        y: 0.0
        z: 0.0
        w: 1.0
---
transforms: 
  - 
    header: 
      seq: 0
      stamp: 
        secs: 220
        nsecs: 146000000
      frame_id: /odom
    child_frame_id: /base_link
    transform: 
      translation: 
        x: 9.99991321564
        y: 4.99996614456
        z: 0.0
      rotation: 
        x: -2.29946944026e-06
        y: 1.83918560444e-06
        z: 0.706708672303
        w: 0.70750466605
---
transforms: 
  - 
    header: 
      seq: 0
      stamp: 
        secs: 220
        nsecs: 157000000
      frame_id: /odom
    child_frame_id: /base_link
    transform: 
      translation: 
        x: 9.99991321564
        y: 4.99996614456
        z: 0.0
      rotation: 
        x: -2.29990647249e-06
        y: 1.83844566198e-06
        z: 0.706708662554
        w: 0.707504675788
---
transforms: 
  - 
    header: 
      seq: 0
      stamp: 
        secs: 220
        nsecs: 157000000
      frame_id: /map
    child_frame_id: /odom
    transform: 
      translation: 
        x: 5.13972103929
        y: 25.3004418698
        z: -0.0107802979123
      rotation: 
        x: -0.000163889299722
        y: 0.00106949414845
        z: 0.98873652915
        w: -0.149662638116
---
transforms: 
  - 
    header: 
      seq: 0
      stamp: 
        secs: 219
        nsecs: 706000000
      frame_id: /base_link
    child_frame_id: /Unicycle/laserscan
    transform: 
      translation: 
        x: 0.2
        y: 0.0
        z: 0.35
      rotation: 
        x: 0.0
        y: 0.0
        z: 0.0
        w: 1.0
---
transforms: 
  - 
    header: 
      seq: 0
      stamp: 
        secs: 220
        nsecs: 174000000
      frame_id: /odom
    child_frame_id: /base_link
    transform: 
      translation: 
        x: 9.99991321564
        y: 4.99996614456
        z: 0.0
      rotation: 
        x: -2.29965880395e-06
        y: 1.83871594004e-06
        z: 0.70670866506
        w: 0.707504673286
---
transforms: 
  - 
    header: 
      seq: 0
      stamp: 
        secs: 220
        nsecs: 189000000
      frame_id: /odom
    child_frame_id: /base_link
    transform: 
      translation: 
        x: 9.99991321564
        y: 4.99996614456
        z: 0.0
      rotation: 
        x: -2.29957026718e-06
        y: 1.83887125475e-06
        z: 0.706708660357
        w: 0.707504677983
---
transforms: 
  - 
    header: 
      seq: 0
      stamp: 
        secs: 220
        nsecs: 204000000
      frame_id: /odom
    child_frame_id: /base_link
    transform: 
      translation: 
        x: 9.99991321564
        y: 4.99996614456
        z: 0.0
      rotation: 
        x: -2.29954651647e-06
        y: 1.8391000517e-06
        z: 0.706708652675
        w: 0.707504685656
---
transforms: 
  - 
    header: 
      seq: 0
      stamp: 
        secs: 220
        nsecs: 188000000
      frame_id: /map
    child_frame_id: /odom
    transform: 
      translation: 
        x: 5.13972103929
        y: 25.3004418698
        z: -0.0107802979123
      rotation: 
        x: -0.000163889299722
        y: 0.00106949414845
        z: 0.98873652915
        w: -0.149662638116
---
transforms: 
  - 
    header: 
      seq: 0
      stamp: 
        secs: 219
        nsecs: 739000000
      frame_id: /base_link
    child_frame_id: /Unicycle/laserscan
    transform: 
      translation: 
        x: 0.2
        y: 0.0
        z: 0.35
      rotation: 
        x: 0.0
        y: 0.0
        z: 0.0
        w: 1.0
---
transforms: 
  - 
    header: 
      seq: 0
      stamp: 
        secs: 220
        nsecs: 219000000
      frame_id: /odom
    child_frame_id: /base_link
    transform: 
      translation: 
        x: 9.99991321564
        y: 4.99996614456
        z: 0.0
      rotation: 
        x: -2.29976645986e-06
        y: 1.83874764823e-06
        z: 0.706708640295
        w: 0.707504698023
---
transforms: 
  - 
    header: 
      seq: 0
      stamp: 
        secs: 220
        nsecs: 235000000
      frame_id: /odom
    child_frame_id: /base_link
    transform: 
      translation: 
        x: 9.99991321564
        y: 4.99996614456
        z: 0.0
      rotation: 
        x: -2.29994268727e-06
        y: 1.83832182513e-06
        z: 0.706708636949
        w: 0.707504701365
---
transforms: 
  - 
    header: 
      seq: 0
      stamp: 
        secs: 219
        nsecs: 772000000
      frame_id: /base_link
    child_frame_id: /Unicycle/laserscan
    transform: 
      translation: 
        x: 0.2
        y: 0.0
        z: 0.35
      rotation: 
        x: 0.0
        y: 0.0
        z: 0.0
        w: 1.0
---
transforms: 
  - 
    header: 
      seq: 0
      stamp: 
        secs: 220
        nsecs: 224000000
      frame_id: /map
    child_frame_id: /odom
    transform: 
      translation: 
        x: 5.13972103929
        y: 25.3004418698
        z: -0.0107802979123
      rotation: 
        x: -0.000163889299722
        y: 0.00106949414845
        z: 0.98873652915
        w: -0.149662638116
---
transforms: 
  - 
    header: 
      seq: 0
      stamp: 
        secs: 220
        nsecs: 252000000
      frame_id: /odom
    child_frame_id: /base_link
    transform: 
      translation: 
        x: 9.99991321564
        y: 4.99996614456
        z: 0.0
      rotation: 
        x: -2.29999228227e-06
        y: 1.83839756225e-06
        z: 0.706708630554
        w: 0.707504707753
---
transforms: 
  - 
    header: 
      seq: 0
      stamp: 
        secs: 220
        nsecs: 267000000
      frame_id: /odom
    child_frame_id: /base_link
    transform: 
      translation: 
        x: 9.99991321564
        y: 4.99996614456
        z: 0.0
      rotation: 
        x: -2.29968424887e-06
        y: 1.83866275757e-06
        z: 0.706708633963
        w: 0.707504704347
---
transforms: 
  - 
    header: 
      seq: 0
      stamp: 
        secs: 219
        nsecs: 805000000
      frame_id: /base_link
    child_frame_id: /Unicycle/laserscan
    transform: 
      translation: 
        x: 0.2
        y: 0.0
        z: 0.35
      rotation: 
        x: 0.0
        y: 0.0
        z: 0.0
        w: 1.0
---
transforms: 
  - 
    header: 
      seq: 0
      stamp: 
        secs: 220
        nsecs: 257000000
      frame_id: /map
    child_frame_id: /odom
    transform: 
      translation: 
        x: 5.13972103929
        y: 25.3004418698
        z: -0.0107802979123
      rotation: 
        x: -0.000163889299722
        y: 0.00106949414845
        z: 0.98873652915
        w: -0.149662638116
---
transforms: 
  - 
    header: 
      seq: 0
      stamp: 
        secs: 220
        nsecs: 283000000
      frame_id: /odom
    child_frame_id: /base_link
    transform: 
      translation: 
        x: 9.99991321564
        y: 4.99996614456
        z: 0.0
      rotation: 
        x: -2.29990745994e-06
        y: 1.83845195471e-06
        z: 0.706708621002
        w: 0.707504717294
---
transforms: 
  - 
    header: 
      seq: 0
      stamp: 
        secs: 220
        nsecs: 296000000
      frame_id: /odom
    child_frame_id: /base_link
    transform: 
      translation: 
        x: 9.99991321564
        y: 4.99996614456
        z: 0.0
      rotation: 
        x: -2.29977005581e-06
        y: 1.83875674248e-06
        z: 0.706708615338
        w: 0.707504722952
---
transforms: 
  - 
    header: 
      seq: 0
      stamp: 
        secs: 220
        nsecs: 292000000
      frame_id: /map
    child_frame_id: /odom
    transform: 
      translation: 
        x: 5.13972103929
        y: 25.3004418698
        z: -0.0107802979123
      rotation: 
        x: -0.000163889299722
        y: 0.00106949414845
        z: 0.98873652915
        w: -0.149662638116
---
transforms: 
  - 
    header: 
      seq: 0
      stamp: 
        secs: 220
        nsecs: 304000000
      frame_id: /odom
    child_frame_id: /base_link
    transform: 
      translation: 
        x: 9.99991321564
        y: 4.99996614456
        z: 0.0
      rotation: 
        x: -2.29954649047e-06
        y: 1.83910744882e-06
        z: 0.706708619452
        w: 0.707504718842
---
transforms: 
  - 
    header: 
      seq: 0
      stamp: 
        secs: 219
        nsecs: 838000000
      frame_id: /base_link
    child_frame_id: /Unicycle/laserscan
    transform: 
      translation: 
        x: 0.2
        y: 0.0
        z: 0.35
      rotation: 
        x: 0.0
        y: 0.0
        z: 0.0
        w: 1.0
---
transforms: 
  - 
    header: 
      seq: 0
      stamp: 
        secs: 220
        nsecs: 319000000
      frame_id: /odom
    child_frame_id: /base_link
    transform: 
      translation: 
        x: 9.99991321564
        y: 4.9999666214
        z: 0.0
      rotation: 
        x: -2.29946356628e-06
        y: 1.83917047887e-06
        z: 0.706708614186
        w: 0.707504724102
---
transforms: 
  - 
    header: 
      seq: 0
      stamp: 
        secs: 220
        nsecs: 332000000
      frame_id: /odom
    child_frame_id: /base_link
    transform: 
      translation: 
        x: 9.99991321564
        y: 4.9999666214
        z: 0.0
      rotation: 
        x: -2.29995150693e-06
        y: 1.83844247445e-06
        z: 0.706708604305
        w: 0.707504733972
---
transforms: 
  - 
    header: 
      seq: 0
      stamp: 
        secs: 219
        nsecs: 871000000
      frame_id: /base_link
    child_frame_id: /Unicycle/laserscan
    transform: 
      translation: 
        x: 0.2
        y: 0.0
        z: 0.35
      rotation: 
        x: 0.0
        y: 0.0
        z: 0.0
        w: 1.0
---
transforms: 
  - 
    header: 
      seq: 0
      stamp: 
        secs: 220
        nsecs: 324000000
      frame_id: /map
    child_frame_id: /odom
    transform: 
      translation: 
        x: 5.13972103929
        y: 25.3004418698
        z: -0.0107802979123
      rotation: 
        x: -0.000163889299722
        y: 0.00106949414845
        z: 0.98873652915
        w: -0.149662638116
---
transforms: 
  - 
    header: 
      seq: 0
      stamp: 
        secs: 220
        nsecs: 351000000
      frame_id: /odom
    child_frame_id: /base_link
    transform: 
      translation: 
        x: 9.99991321564
        y: 4.9999666214
        z: 0.0
      rotation: 
        x: -2.29999665785e-06
        y: 1.83832474361e-06
        z: 0.706708598375
        w: 0.707504739895
---
transforms: 
  - 
    header: 
      seq: 0
      stamp: 
        secs: 220
        nsecs: 361000000
      frame_id: /odom
    child_frame_id: /base_link
    transform: 
      translation: 
        x: 9.99991321564
        y: 4.9999666214
        z: 0.0
      rotation: 
        x: -2.29980284378e-06
        y: 1.83873463802e-06
        z: 0.706708593774
        w: 0.707504744491
---
transforms: 
  - 
    header: 
      seq: 0
      stamp: 
        secs: 220
        nsecs: 358000000
      frame_id: /map
    child_frame_id: /odom
    transform: 
      translation: 
        x: 5.13972103929
        y: 25.3004418698
        z: -0.0107802979123
      rotation: 
        x: -0.000163889299722
        y: 0.00106949414845
        z: 0.98873652915
        w: -0.149662638116
---
transforms: 
  - 
    header: 
      seq: 0
      stamp: 
        secs: 219
        nsecs: 904000000
      frame_id: /base_link
    child_frame_id: /Unicycle/laserscan
    transform: 
      translation: 
        x: 0.2
        y: 0.0
        z: 0.35
      rotation: 
        x: 0.0
        y: 0.0
        z: 0.0
        w: 1.0
---
transforms: 
  - 
    header: 
      seq: 0
      stamp: 
        secs: 220
        nsecs: 379000000
      frame_id: /odom
    child_frame_id: /base_link
    transform: 
      translation: 
        x: 9.99991321564
        y: 4.9999666214
        z: 0.0
      rotation: 
        x: -2.29995579135e-06
        y: 1.83855681874e-06
        z: 0.706708584493
        w: 0.707504753762
---
transforms: 
  - 
    header: 
      seq: 0
      stamp: 
        secs: 220
        nsecs: 393000000
      frame_id: /odom
    child_frame_id: /base_link
    transform: 
      translation: 
        x: 9.99991321564
        y: 4.9999666214
        z: 0.0
      rotation: 
        x: -2.29992389973e-06
        y: 1.83834265804e-06
        z: 0.706708583829
        w: 0.707504754425
---
transforms: 
  - 
    header: 
      seq: 0
      stamp: 
        secs: 220
        nsecs: 393000000
      frame_id: /map
    child_frame_id: /odom
    transform: 
      translation: 
        x: 5.13972103929
        y: 25.3004418698
        z: -0.0107802979123
      rotation: 
        x: -0.000163889299722
        y: 0.00106949414845
        z: 0.98873652915
        w: -0.149662638116
---
transforms: 
  - 
    header: 
      seq: 0
      stamp: 
        secs: 220
        nsecs: 400000000
      frame_id: /odom
    child_frame_id: /base_link
    transform: 
      translation: 
        x: 9.99991321564
        y: 4.9999666214
        z: 0.0
      rotation: 
        x: -2.29998398895e-06
        y: 1.83833966753e-06
        z: 0.706708581745
        w: 0.707504756507
---
transforms: 
  - 
    header: 
      seq: 0
      stamp: 
        secs: 219
        nsecs: 938000000
      frame_id: /base_link
    child_frame_id: /Unicycle/laserscan
    transform: 
      translation: 
        x: 0.2
        y: 0.0
        z: 0.35
      rotation: 
        x: 0.0
        y: 0.0
        z: 0.0
        w: 1.0
---
transforms: 
  - 
    header: 
      seq: 0
      stamp: 
        secs: 220
        nsecs: 415000000
      frame_id: /odom
    child_frame_id: /base_link
    transform: 
      translation: 
        x: 9.99991321564
        y: 4.9999666214
        z: 0.0
      rotation: 
        x: -2.29991657932e-06
        y: 1.83841501257e-06
        z: 0.706708577411
        w: 0.707504760835
---
transforms: 
  - 
    header: 
      seq: 0
      stamp: 
        secs: 220
        nsecs: 430000000
      frame_id: /odom
    child_frame_id: /base_link
    transform: 
      translation: 
        x: 9.99991321564
        y: 4.9999666214
        z: 0.0
      rotation: 
        x: -2.29982317107e-06
        y: 1.83871864856e-06
        z: 0.706708570851
        w: 0.707504767388
---
transforms: 
  - 
    header: 
      seq: 0
      stamp: 
        secs: 219
        nsecs: 971000000
      frame_id: /base_link
    child_frame_id: /Unicycle/laserscan
    transform: 
      translation: 
        x: 0.2
        y: 0.0
        z: 0.35
      rotation: 
        x: 0.0
        y: 0.0
        z: 0.0
        w: 1.0
---
transforms: 
  - 
    header: 
      seq: 0
      stamp: 
        secs: 220
        nsecs: 442000000
      frame_id: /odom
    child_frame_id: /base_link
    transform: 
      translation: 
        x: 9.99991321564
        y: 4.9999666214
        z: 0.0
      rotation: 
        x: -2.29975473241e-06
        y: 1.83864400631e-06
        z: 0.706708575855
        w: 0.707504762389
---
transforms: 
  - 
    header: 
      seq: 0
      stamp: 
        secs: 220
        nsecs: 430000000
      frame_id: /map
    child_frame_id: /odom
    transform: 
      translation: 
        x: 5.13972103929
        y: 25.3004418698
        z: -0.0107802979123
      rotation: 
        x: -0.000163889299722
        y: 0.00106949414845
        z: 0.98873652915
        w: -0.149662638116
---
transforms: 
  - 
    header: 
      seq: 0
      stamp: 
        secs: 220
        nsecs: 461000000
      frame_id: /odom
    child_frame_id: /base_link
    transform: 
      translation: 
        x: 9.99991321564
        y: 4.9999666214
        z: 0.0
      rotation: 
        x: -2.29998500835e-06
        y: 1.83855665864e-06
        z: 0.706708557634
        w: 0.707504780591
---
transforms: 
  - 
    header: 
      seq: 0
      stamp: 
        secs: 220
        nsecs: 4000000
      frame_id: /base_link
    child_frame_id: /Unicycle/laserscan
    transform: 
      translation: 
        x: 0.2
        y: 0.0
        z: 0.35
      rotation: 
        x: 0.0
        y: 0.0
        z: 0.0
        w: 1.0
---
transforms: 
  - 
    header: 
      seq: 0
      stamp: 
        secs: 220
        nsecs: 473000000
      frame_id: /odom
    child_frame_id: /base_link
    transform: 
      translation: 
        x: 9.99991321564
        y: 4.9999666214
        z: 0.0
      rotation: 
        x: -2.29990560814e-06
        y: 1.83842951896e-06
        z: 0.706708557577
        w: 0.707504780647
---
transforms: 
  - 
    header: 
      seq: 0
      stamp: 
        secs: 220
        nsecs: 464000000
      frame_id: /map
    child_frame_id: /odom
    transform: 
      translation: 
        x: 5.13972103929
        y: 25.3004418698
        z: -0.0107802979123
      rotation: 
        x: -0.000163889299722
        y: 0.00106949414845
        z: 0.98873652915
        w: -0.149662638116
---
transforms: 
  - 
    header: 
      seq: 0
      stamp: 
        secs: 220
        nsecs: 491000000
      frame_id: /odom
    child_frame_id: /base_link
    transform: 
      translation: 
        x: 9.99991321564
        y: 4.9999666214
        z: 0.0
      rotation: 
        x: -2.29968633691e-06
        y: 1.83871983409e-06
        z: 0.706708560187
        w: 0.70750477804
---
transforms: 
  - 
    header: 
      seq: 0
      stamp: 
        secs: 220
        nsecs: 495000000
      frame_id: /map
    child_frame_id: /odom
    transform: 
      translation: 
        x: 5.13972103929
        y: 25.3004418698
        z: -0.0107802979123
      rotation: 
        x: -0.000163889299722
        y: 0.00106949414845
        z: 0.98873652915
        w: -0.149662638116
---
transforms: 
  - 
    header: 
      seq: 0
      stamp: 
        secs: 220
        nsecs: 501000000
      frame_id: /odom
    child_frame_id: /base_link
    transform: 
      translation: 
        x: 9.99991321564
        y: 4.9999666214
        z: 0.0
      rotation: 
        x: -2.29996189112e-06
        y: 1.8383973989e-06
        z: 0.706708548503
        w: 0.707504789711
---
transforms: 
  - 
    header: 
      seq: 0
      stamp: 
        secs: 220
        nsecs: 37000000
      frame_id: /base_link
    child_frame_id: /Unicycle/laserscan
    transform: 
      translation: 
        x: 0.2
        y: 0.0
        z: 0.35
      rotation: 
        x: 0.0
        y: 0.0
        z: 0.0
        w: 1.0
---
transforms: 
  - 
    header: 
      seq: 0
      stamp: 
        secs: 220
        nsecs: 517000000
      frame_id: /odom
    child_frame_id: /base_link
    transform: 
      translation: 
        x: 9.99991321564
        y: 4.9999666214
        z: 0.0
      rotation: 
        x: -2.3000493549e-06
        y: 1.83831087274e-06
        z: 0.706708543346
        w: 0.707504794863
---
transforms: 
  - 
    header: 
      seq: 0
      stamp: 
        secs: 220
        nsecs: 531000000
      frame_id: /odom
    child_frame_id: /base_link
    transform: 
      translation: 
        x: 9.99991321564
        y: 4.9999666214
        z: 0.0
      rotation: 
        x: -2.29956049607e-06
        y: 1.83890686416e-06
        z: 0.706708546038
        w: 0.707504792173
---
transforms: 
  - 
    header: 
      seq: 0
      stamp: 
        secs: 220
        nsecs: 71000000
      frame_id: /base_link
    child_frame_id: /Unicycle/laserscan
    transform: 
      translation: 
        x: 0.2
        y: 0.0
        z: 0.35
      rotation: 
        x: 0.0
        y: 0.0
        z: 0.0
        w: 1.0
---
transforms: 
  - 
    header: 
      seq: 0
      stamp: 
        secs: 220
        nsecs: 531000000
      frame_id: /map
    child_frame_id: /odom
    transform: 
      translation: 
        x: 5.13972103929
        y: 25.3004418698
        z: -0.0107802979123
      rotation: 
        x: -0.000163889299722
        y: 0.00106949414845
        z: 0.98873652915
        w: -0.149662638116
---
transforms: 
  - 
    header: 
      seq: 0
      stamp: 
        secs: 220
        nsecs: 548000000
      frame_id: /odom
    child_frame_id: /base_link
    transform: 
      translation: 
        x: 9.99991321564
        y: 4.9999666214
        z: 0.0
      rotation: 
        x: -2.29995282202e-06
        y: 1.83843443155e-06
        z: 0.706708532561
        w: 0.707504805635
---
transforms: 
  - 
    header: 
      seq: 0
      stamp: 
        secs: 220
        nsecs: 564000000
      frame_id: /odom
    child_frame_id: /base_link
    transform: 
      translation: 
        x: 9.99991321564
        y: 4.9999666214
        z: 0.0
      rotation: 
        x: -2.2995659811e-06
        y: 1.83889523875e-06
        z: 0.706708535616
        w: 0.707504802584
---
transforms: 
  - 
    header: 
      seq: 0
      stamp: 
        secs: 220
        nsecs: 105000000
      frame_id: /base_link
    child_frame_id: /Unicycle/laserscan
    transform: 
      translation: 
        x: 0.2
        y: 0.0
        z: 0.35
      rotation: 
        x: 0.0
        y: 0.0
        z: 0.0
        w: 1.0
---
transforms: 
  - 
    header: 
      seq: 0
      stamp: 
        secs: 220
        nsecs: 563000000
      frame_id: /map
    child_frame_id: /odom
    transform: 
      translation: 
        x: 5.13972103929
        y: 25.3004418698
        z: -0.0107802979123
      rotation: 
        x: -0.000163889299722
        y: 0.00106949414845
        z: 0.98873652915
        w: -0.149662638116
---
transforms: 
  - 
    header: 
      seq: 0
      stamp: 
        secs: 220
        nsecs: 578000000
      frame_id: /odom
    child_frame_id: /base_link
    transform: 
      translation: 
        x: 9.99991321564
        y: 4.9999666214
        z: 0.0
      rotation: 
        x: -2.29945442464e-06
        y: 1.83915818233e-06
        z: 0.70670852806
        w: 0.707504810131
---
transforms: 
  - 
    header: 
      seq: 0
      stamp: 
        secs: 220
        nsecs: 596000000
      frame_id: /odom
    child_frame_id: /base_link
    transform: 
      translation: 
        x: 9.99991321564
        y: 4.9999666214
        z: 0.0
      rotation: 
        x: -2.29976519912e-06
        y: 1.83873382596e-06
        z: 0.706708515686
        w: 0.707504822491
---
transforms: 
  - 
    header: 
      seq: 0
      stamp: 
        secs: 220
        nsecs: 139000000
      frame_id: /base_link
    child_frame_id: /Unicycle/laserscan
    transform: 
      translation: 
        x: 0.2
        y: 0.0
        z: 0.35
      rotation: 
        x: 0.0
        y: 0.0
        z: 0.0
        w: 1.0
---
transforms: 
  - 
    header: 
      seq: 0
      stamp: 
        secs: 220
        nsecs: 607000000
      frame_id: /odom
    child_frame_id: /base_link
    transform: 
      translation: 
        x: 9.99991321564
        y: 4.9999666214
        z: 0.0
      rotation: 
        x: -2.2996389995e-06
        y: 1.83869918361e-06
        z: 0.706708520832
        w: 0.707504817351
---
transforms: 
  - 
    header: 
      seq: 0
      stamp: 
        secs: 220
        nsecs: 598000000
      frame_id: /map
    child_frame_id: /odom
    transform: 
      translation: 
        x: 5.13972103929
        y: 25.3004418698
        z: -0.0107802979123
      rotation: 
        x: -0.000163889299722
        y: 0.00106949414845
        z: 0.98873652915
        w: -0.149662638116
---
transforms: 
  - 
    header: 
      seq: 0
      stamp: 
        secs: 220
        nsecs: 625000000
      frame_id: /odom
    child_frame_id: /base_link
    transform: 
      translation: 
        x: 9.99991321564
        y: 4.9999666214
        z: 0.0
      rotation: 
        x: -2.29973164756e-06
        y: 1.83868701879e-06
        z: 0.706708514511
        w: 0.707504823665
---
transforms: 
  - 
    header: 
      seq: 0
      stamp: 
        secs: 220
        nsecs: 172000000
      frame_id: /base_link
    child_frame_id: /Unicycle/laserscan
    transform: 
      translation: 
        x: 0.2
        y: 0.0
        z: 0.35
      rotation: 
        x: 0.0
        y: 0.0
        z: 0.0
        w: 1.0
---
transforms: 
  - 
    header: 
      seq: 0
      stamp: 
        secs: 220
        nsecs: 640000000
      frame_id: /odom
    child_frame_id: /base_link
    transform: 
      translation: 
        x: 9.99991321564
        y: 4.9999666214
        z: 0.0
      rotation: 
        x: -2.29965099164e-06
        y: 1.83868944036e-06
        z: 0.706708510378
        w: 0.707504827793
---
transforms: 
  - 
    header: 
      seq: 0
      stamp: 
        secs: 220
        nsecs: 631000000
      frame_id: /map
    child_frame_id: /odom
    transform: 
      translation: 
        x: 5.13972103929
        y: 25.3004418698
        z: -0.0107802979123
      rotation: 
        x: -0.000163889299722
        y: 0.00106949414845
        z: 0.98873652915
        w: -0.149662638116
---
transforms: 
  - 
    header: 
      seq: 0
      stamp: 
        secs: 220
        nsecs: 650000000
      frame_id: /odom
    child_frame_id: /base_link
    transform: 
      translation: 
        x: 9.99991321564
        y: 4.9999666214
        z: 0.0
      rotation: 
        x: -2.33139484086e-06
        y: 1.867860113e-06
        z: 0.706708506389
        w: 0.707504831778
---
transforms: 
  - 
    header: 
      seq: 0
      stamp: 
        secs: 220
        nsecs: 665000000
      frame_id: /odom
    child_frame_id: /base_link
    transform: 
      translation: 
        x: 9.99991321564
        y: 4.9999666214
        z: 0.0
      rotation: 
        x: -2.29998674765e-06
        y: 1.83896908036e-06
        z: 0.706708501488
        w: 0.707504836673
---
transforms: 
  - 
    header: 
      seq: 0
      stamp: 
        secs: 220
        nsecs: 205000000
      frame_id: /base_link
    child_frame_id: /Unicycle/laserscan
    transform: 
      translation: 
        x: 0.2
        y: 0.0
        z: 0.35
      rotation: 
        x: 0.0
        y: 0.0
        z: 0.0
        w: 1.0
---
transforms: 
  - 
    header: 
      seq: 0
      stamp: 
        secs: 220
        nsecs: 665000000
      frame_id: /map
    child_frame_id: /odom
    transform: 
      translation: 
        x: 5.13972103929
        y: 25.3004418698
        z: -0.0107802979123
      rotation: 
        x: -0.000163889299722
        y: 0.00106949414845
        z: 0.98873652915
        w: -0.149662638116
---
transforms: 
  - 
    header: 
      seq: 0
      stamp: 
        secs: 220
        nsecs: 681000000
      frame_id: /odom
    child_frame_id: /base_link
    transform: 
      translation: 
        x: 9.99991321564
        y: 4.9999666214
        z: 0.0
      rotation: 
        x: -2.29961684245e-06
        y: 1.83888983085e-06
        z: 0.706708496212
        w: 0.707504841943
---
transforms: 
  - 
    header: 
      seq: 0
      stamp: 
        secs: 220
        nsecs: 698000000
      frame_id: /odom
    child_frame_id: /base_link
    transform: 
      translation: 
        x: 9.99991321564
        y: 4.9999666214
        z: 0.0
      rotation: 
        x: -2.29993125134e-06
        y: 1.83839900083e-06
        z: 0.706708483109
        w: 0.707504855032
---
transforms: 
  - 
    header: 
      seq: 0
      stamp: 
        secs: 220
        nsecs: 238000000
      frame_id: /base_link
    child_frame_id: /Unicycle/laserscan
    transform: 
      translation: 
        x: 0.2
        y: 0.0
        z: 0.35
      rotation: 
        x: 0.0
        y: 0.0
        z: 0.0
        w: 1.0
---
transforms: 
  - 
    header: 
      seq: 0
      stamp: 
        secs: 220
        nsecs: 698000000
      frame_id: /map
    child_frame_id: /odom
    transform: 
      translation: 
        x: 5.13972103929
        y: 25.3004418698
        z: -0.0107802979123
      rotation: 
        x: -0.000163889299722
        y: 0.00106949414845
        z: 0.98873652915
        w: -0.149662638116
---
transforms: 
  - 
    header: 
      seq: 0
      stamp: 
        secs: 220
        nsecs: 712000000
      frame_id: /odom
    child_frame_id: /base_link
    transform: 
      translation: 
        x: 9.99991321564
        y: 4.9999666214
        z: 0.0
      rotation: 
        x: -2.29994399617e-06
        y: 1.83857217228e-06
        z: 0.706708473605
        w: 0.707504864525
---
transforms: 
  - 
    header: 
      seq: 0
      stamp: 
        secs: 220
        nsecs: 728000000
      frame_id: /odom
    child_frame_id: /base_link
    transform: 
      translation: 
        x: 9.99991321564
        y: 4.9999666214
        z: 0.0
      rotation: 
        x: -2.29990563452e-06
        y: 1.83857469681e-06
        z: 0.706708468256
        w: 0.707504869868
---
transforms: 
  - 
    header: 
      seq: 0
      stamp: 
        secs: 220
        nsecs: 734000000
      frame_id: /odom
    child_frame_id: /base_link
    transform: 
      translation: 
        x: 9.99991321564
        y: 4.9999666214
        z: 0.0
      rotation: 
        x: -2.29999184029e-06
        y: 1.83828436406e-06
        z: 0.706708470824
        w: 0.707504867302
---
transforms: 
  - 
    header: 
      seq: 0
      stamp: 
        secs: 220
        nsecs: 271000000
      frame_id: /base_link
    child_frame_id: /Unicycle/laserscan
    transform: 
      translation: 
        x: 0.2
        y: 0.0
        z: 0.35
      rotation: 
        x: 0.0
        y: 0.0
        z: 0.0
        w: 1.0
---
transforms: 
  - 
    header: 
      seq: 0
      stamp: 
        secs: 220
        nsecs: 732000000
      frame_id: /map
    child_frame_id: /odom
    transform: 
      translation: 
        x: 5.13972103929
        y: 25.3004418698
        z: -0.0107802979123
      rotation: 
        x: -0.000163889299722
        y: 0.00106949414845
        z: 0.98873652915
        w: -0.149662638116
---
transforms: 
  - 
    header: 
      seq: 0
      stamp: 
        secs: 220
        nsecs: 753000000
      frame_id: /odom
    child_frame_id: /base_link
    transform: 
      translation: 
        x: 9.99991321564
        y: 4.9999666214
        z: 0.0
      rotation: 
        x: -2.29997337534e-06
        y: 1.83836776695e-06
        z: 0.706708464436
        w: 0.707504873683
---
transforms: 
  - 
    header: 
      seq: 0
      stamp: 
        secs: 220
        nsecs: 766000000
      frame_id: /odom
    child_frame_id: /base_link
    transform: 
      translation: 
        x: 9.99991321564
        y: 4.9999666214
        z: 0.0
      rotation: 
        x: -2.29995760707e-06
        y: 1.83843817414e-06
        z: 0.706708460131
        w: 0.707504877984
---
transforms: 
  - 
    header: 
      seq: 0
      stamp: 
        secs: 220
        nsecs: 304000000
      frame_id: /base_link
    child_frame_id: /Unicycle/laserscan
    transform: 
      translation: 
        x: 0.2
        y: 0.0
        z: 0.35
      rotation: 
        x: 0.0
        y: 0.0
        z: 0.0
        w: 1.0
---
transforms: 
  - 
    header: 
      seq: 0
      stamp: 
        secs: 220
        nsecs: 766000000
      frame_id: /map
    child_frame_id: /odom
    transform: 
      translation: 
        x: 5.13972103929
        y: 25.3004418698
        z: -0.0107802979123
      rotation: 
        x: -0.000163889299722
        y: 0.00106949414845
        z: 0.98873652915
        w: -0.149662638116
---
transforms: 
  - 
    header: 
      seq: 0
      stamp: 
        secs: 220
        nsecs: 779000000
      frame_id: /odom
    child_frame_id: /base_link
    transform: 
      translation: 
        x: 9.99991321564
        y: 4.9999666214
        z: 0.0
      rotation: 
        x: -2.29962344614e-06
        y: 1.83887915576e-06
        z: 0.706708463003
        w: 0.707504875115
---
transforms: 
  - 
    header: 
      seq: 0
      stamp: 
        secs: 220
        nsecs: 796000000
      frame_id: /odom
    child_frame_id: /base_link
    transform: 
      translation: 
        x: 9.99991321564
        y: 4.9999666214
        z: 0.0
      rotation: 
        x: -2.2997718469e-06
        y: 1.8386855395e-06
        z: 0.706708449569
        w: 0.707504888533
---
transforms: 
  - 
    header: 
      seq: 0
      stamp: 
        secs: 220
        nsecs: 337000000
      frame_id: /base_link
    child_frame_id: /Unicycle/laserscan
    transform: 
      translation: 
        x: 0.2
        y: 0.0
        z: 0.35
      rotation: 
        x: 0.0
        y: 0.0
        z: 0.0
        w: 1.0
---
transforms: 
  - 
    header: 
      seq: 0
      stamp: 
        secs: 220
        nsecs: 809000000
      frame_id: /odom
    child_frame_id: /base_link
    transform: 
      translation: 
        x: 9.99991321564
        y: 4.9999666214
        z: 0.0
      rotation: 
        x: -2.29996683119e-06
        y: 1.83838019524e-06
        z: 0.706708445897
        w: 0.707504892201
---
transforms: 
  - 
    header: 
      seq: 0
      stamp: 
        secs: 220
        nsecs: 802000000
      frame_id: /map
    child_frame_id: /odom
    transform: 
      translation: 
        x: 5.13972103929
        y: 25.3004418698
        z: -0.0107802979123
      rotation: 
        x: -0.000163889299722
        y: 0.00106949414845
        z: 0.98873652915
        w: -0.149662638116
---
transforms: 
  - 
    header: 
      seq: 0
      stamp: 
        secs: 220
        nsecs: 824000000
      frame_id: /odom
    child_frame_id: /base_link
    transform: 
      translation: 
        x: 9.99991321564
        y: 4.9999666214
        z: 0.0
      rotation: 
        x: -2.29968327046e-06
        y: 1.8386594669e-06
        z: 0.706708449326
        w: 0.707504888776
---
transforms: 
  - 
    header: 
      seq: 0
      stamp: 
        secs: 220
        nsecs: 371000000
      frame_id: /base_link
    child_frame_id: /Unicycle/laserscan
    transform: 
      translation: 
        x: 0.2
        y: 0.0
        z: 0.35
      rotation: 
        x: 0.0
        y: 0.0
        z: 0.0
        w: 1.0
---
transforms: 
  - 
    header: 
      seq: 0
      stamp: 
        secs: 220
        nsecs: 837000000
      frame_id: /odom
    child_frame_id: /base_link
    transform: 
      translation: 
        x: 9.99991321564
        y: 4.9999666214
        z: 0.0
      rotation: 
        x: -2.29958004214e-06
        y: 1.83912816959e-06
        z: 0.706708442018
        w: 0.707504896076
---
transforms: 
  - 
    header: 
      seq: 0
      stamp: 
        secs: 220
        nsecs: 836000000
      frame_id: /map
    child_frame_id: /odom
    transform: 
      translation: 
        x: 5.13972103929
        y: 25.3004418698
        z: -0.0107802979123
      rotation: 
        x: -0.000163889299722
        y: 0.00106949414845
        z: 0.98873652915
        w: -0.149662638116
---
transforms: 
  - 
    header: 
      seq: 0
      stamp: 
        secs: 220
        nsecs: 858000000
      frame_id: /odom
    child_frame_id: /base_link
    transform: 
      translation: 
        x: 9.99991321564
        y: 4.9999666214
        z: 0.0
      rotation: 
        x: -2.29983886788e-06
        y: 1.83869006705e-06
        z: 0.706708429568
        w: 0.707504908512
---
transforms: 
  - 
    header: 
      seq: 0
      stamp: 
        secs: 220
        nsecs: 869000000
      frame_id: /odom
    child_frame_id: /base_link
    transform: 
      translation: 
        x: 9.99991321564
        y: 4.9999666214
        z: 0.0
      rotation: 
        x: -2.2999982541e-06
        y: 1.83852142387e-06
        z: 0.706708421661
        w: 0.707504916411
---
transforms: 
  - 
    header: 
      seq: 0
      stamp: 
        secs: 220
        nsecs: 404000000
      frame_id: /base_link
    child_frame_id: /Unicycle/laserscan
    transform: 
      translation: 
        x: 0.2
        y: 0.0
        z: 0.35
      rotation: 
        x: 0.0
        y: 0.0
        z: 0.0
        w: 1.0
---
transforms: 
  - 
    header: 
      seq: 0
      stamp: 
        secs: 220
        nsecs: 882000000
      frame_id: /odom
    child_frame_id: /base_link
    transform: 
      translation: 
        x: 9.99991321564
        y: 4.9999666214
        z: 0.0
      rotation: 
        x: -2.29995433984e-06
        y: 1.83845529292e-06
        z: 0.706708421517
        w: 0.707504916554
---
transforms: 
  - 
    header: 
      seq: 0
      stamp: 
        secs: 220
        nsecs: 870000000
      frame_id: /map
    child_frame_id: /odom
    transform: 
      translation: 
        x: 5.13972103929
        y: 25.3004418698
        z: -0.0107802979123
      rotation: 
        x: -0.000163889299722
        y: 0.00106949414845
        z: 0.98873652915
        w: -0.149662638116
---
transforms: 
  - 
    header: 
      seq: 0
      stamp: 
        secs: 220
        nsecs: 897000000
      frame_id: /odom
    child_frame_id: /base_link
    transform: 
      translation: 
        x: 9.99991321564
        y: 4.9999666214
        z: 0.0
      rotation: 
        x: -2.29956937261e-06
        y: 1.83889314933e-06
        z: 0.706708424648
        w: 0.707504913426
---
transforms: 
  - 
    header: 
      seq: 0
      stamp: 
        secs: 220
        nsecs: 437000000
      frame_id: /base_link
    child_frame_id: /Unicycle/laserscan
    transform: 
      translation: 
        x: 0.2
        y: 0.0
        z: 0.35
      rotation: 
        x: 0.0
        y: 0.0
        z: 0.0
        w: 1.0
---
transforms: 
  - 
    header: 
      seq: 0
      stamp: 
        secs: 220
        nsecs: 908000000
      frame_id: /odom
    child_frame_id: /base_link
    transform: 
      translation: 
        x: 9.99991321564
        y: 4.9999666214
        z: 0.0
      rotation: 
        x: -2.29993915713e-06
        y: 1.8383614641e-06
        z: 0.706708412623
        w: 0.707504925438
---
transforms: 
  - 
    header: 
      seq: 0
      stamp: 
        secs: 220
        nsecs: 903000000
      frame_id: /map
    child_frame_id: /odom
    transform: 
      translation: 
        x: 5.13972103929
        y: 25.3004418698
        z: -0.0107802979123
      rotation: 
        x: -0.000163889299722
        y: 0.00106949414845
        z: 0.98873652915
        w: -0.149662638116
---
transforms: 
  - 
    header: 
      seq: 0
      stamp: 
        secs: 220
        nsecs: 926000000
      frame_id: /odom
    child_frame_id: /base_link
    transform: 
      translation: 
        x: 9.99991321564
        y: 4.9999666214
        z: 0.0
      rotation: 
        x: -2.29963484737e-06
        y: 1.83867471797e-06
        z: 0.706708415007
        w: 0.707504923057
---
transforms: 
  - 
    header: 
      seq: 0
      stamp: 
        secs: 220
        nsecs: 471000000
      frame_id: /base_link
    child_frame_id: /Unicycle/laserscan
    transform: 
      translation: 
        x: 0.2
        y: 0.0
        z: 0.35
      rotation: 
        x: 0.0
        y: 0.0
        z: 0.0
        w: 1.0
---
transforms: 
  - 
    header: 
      seq: 0
      stamp: 
        secs: 220
        nsecs: 938000000
      frame_id: /odom
    child_frame_id: /base_link
    transform: 
      translation: 
        x: 9.99991321564
        y: 4.9999666214
        z: 0.0
      rotation: 
        x: -2.29945670814e-06
        y: 1.83916868913e-06
        z: 0.706708408761
        w: 0.707504929296
---
transforms: 
  - 
    header: 
      seq: 0
      stamp: 
        secs: 220
        nsecs: 938000000
      frame_id: /map
    child_frame_id: /odom
    transform: 
      translation: 
        x: 5.13972103929
        y: 25.3004418698
        z: -0.0107802979123
      rotation: 
        x: -0.000163889299722
        y: 0.00106949414845
        z: 0.98873652915
        w: -0.149662638116
---
transforms: 
  - 
    header: 
      seq: 0
      stamp: 
        secs: 220
        nsecs: 951000000
      frame_id: /odom
    child_frame_id: /base_link
    transform: 
      translation: 
        x: 9.99991321564
        y: 4.9999666214
        z: 0.0
      rotation: 
        x: -2.29964094178e-06
        y: 1.83868548814e-06
        z: 0.706708406683
        w: 0.707504931371
---
transforms: 
  - 
    header: 
      seq: 0
      stamp: 
        secs: 220
        nsecs: 966000000
      frame_id: /odom
    child_frame_id: /base_link
    transform: 
      translation: 
        x: 9.99991321564
        y: 4.9999666214
        z: 0.0
      rotation: 
        x: -2.29973713281e-06
        y: 1.83865906598e-06
        z: 0.706708401494
        w: 0.707504936554
---
transforms: 
  - 
    header: 
      seq: 0
      stamp: 
        secs: 220
        nsecs: 504000000
      frame_id: /base_link
    child_frame_id: /Unicycle/laserscan
    transform: 
      translation: 
        x: 0.2
        y: 0.0
        z: 0.35
      rotation: 
        x: 0.0
        y: 0.0
        z: 0.0
        w: 1.0
---
transforms: 
  - 
    header: 
      seq: 0
      stamp: 
        secs: 220
        nsecs: 979000000
      frame_id: /odom
    child_frame_id: /base_link
    transform: 
      translation: 
        x: 9.99991321564
        y: 4.9999666214
        z: 0.0
      rotation: 
        x: -2.29949732092e-06
        y: 1.83918271396e-06
        z: 0.706708395207
        w: 0.707504942834
---
transforms: 
  - 
    header: 
      seq: 0
      stamp: 
        secs: 220
        nsecs: 971000000
      frame_id: /map
    child_frame_id: /odom
    transform: 
      translation: 
        x: 5.13972103929
        y: 25.3004418698
        z: -0.0107802979123
      rotation: 
        x: -0.000163889299722
        y: 0.00106949414845
        z: 0.98873652915
        w: -0.149662638116
---
transforms: 
  - 
    header: 
      seq: 0
      stamp: 
        secs: 220
        nsecs: 996000000
      frame_id: /odom
    child_frame_id: /base_link
    transform: 
      translation: 
        x: 9.99991321564
        y: 4.9999666214
        z: 0.0
      rotation: 
        x: -2.29981657731e-06
        y: 1.83867900826e-06
        z: 0.706708383081
        w: 0.707504954946
---
transforms: 
  - 
    header: 
      seq: 0
      stamp: 
        secs: 220
        nsecs: 537000000
      frame_id: /base_link
    child_frame_id: /Unicycle/laserscan
    transform: 
      translation: 
        x: 0.2
        y: 0.0
        z: 0.35
      rotation: 
        x: 0.0
        y: 0.0
        z: 0.0
        w: 1.0
---
transforms: 
  - 
    header: 
      seq: 0
      stamp: 
        secs: 221
        nsecs: 8000000
      frame_id: /odom
    child_frame_id: /base_link
    transform: 
      translation: 
        x: 9.99991321564
        y: 4.9999666214
        z: 0.0
      rotation: 
        x: -2.29969129696e-06
        y: 1.83867082583e-06
        z: 0.706708387885
        w: 0.707504950148
---
transforms: 
  - 
    header: 
      seq: 0
      stamp: 
        secs: 221
        nsecs: 6000000
      frame_id: /map
    child_frame_id: /odom
    transform: 
      translation: 
        x: 5.13972103929
        y: 25.3004418698
        z: -0.0107802979123
      rotation: 
        x: -0.000163889299722
        y: 0.00106949414845
        z: 0.98873652915
        w: -0.149662638116
---
transforms: 
  - 
    header: 
      seq: 0
      stamp: 
        secs: 221
        nsecs: 22000000
      frame_id: /odom
    child_frame_id: /base_link
    transform: 
      translation: 
        x: 9.99991321564
        y: 4.9999666214
        z: 0.0
      rotation: 
        x: -2.30001972155e-06
        y: 1.83835772151e-06
        z: 0.706708375022
        w: 0.707504962997
---
transforms: 
  - 
    header: 
      seq: 0
      stamp: 
        secs: 220
        nsecs: 570000000
      frame_id: /base_link
    child_frame_id: /Unicycle/laserscan
    transform: 
      translation: 
        x: 0.2
        y: 0.0
        z: 0.35
      rotation: 
        x: 0.0
        y: 0.0
        z: 0.0
        w: 1.0
---
transforms: 
  - 
    header: 
      seq: 0
      stamp: 
        secs: 221
        nsecs: 39000000
      frame_id: /odom
    child_frame_id: /base_link
    transform: 
      translation: 
        x: 9.99991321564
        y: 4.9999666214
        z: 0.0
      rotation: 
        x: -2.2997648857e-06
        y: 1.83876376778e-06
        z: 0.706708368395
        w: 0.707504969617
---
transforms: 
  - 
    header: 
      seq: 0
      stamp: 
        secs: 221
        nsecs: 39000000
      frame_id: /map
    child_frame_id: /odom
    transform: 
      translation: 
        x: 5.13972103929
        y: 25.3004418698
        z: -0.0107802979123
      rotation: 
        x: -0.000163889299722
        y: 0.00106949414845
        z: 0.98873652915
        w: -0.149662638116
---
transforms: 
  - 
    header: 
      seq: 0
      stamp: 
        secs: 221
        nsecs: 59000000
      frame_id: /odom
    child_frame_id: /base_link
    transform: 
      translation: 
        x: 9.99991321564
        y: 4.9999666214
        z: 0.0
      rotation: 
        x: -2.29992315202e-06
        y: 1.83843880967e-06
        z: 0.706708363515
        w: 0.707504974491
---
transforms: 
  - 
    header: 
